序号,原名称,核实后名称,装机容量MW,省,市,区,详细地址,电场名称线索文本,电场名称线索参考地址,装机容量线索文本,装机容量线索参考地址,确信度,搜索状态,搜索关键词,经度,纬度,地理编码结果
1,七棵树、多依树,建水七棵树风电场,193.6,云南省,红河州,建水县,云南省红河州建水县东部（南片区：普雄乡/坡头乡/临安镇五老峰；北片区：面甸镇过鲊村）,新天绿色能源云南建水七棵树风电场,https://news.bjx.com.cn/html/20160425/727565.shtml,193.6MW,https://news.bjx.com.cn/html/20160425/727565.shtml,高,地理编码成功,云南省红河州建水县东部（南片区：普雄乡/坡头乡/临安镇五老峰；北片区：面甸镇过鲊村）,103.047951,23.71184,success: detail_address
2,三月山,武定三月山风电场,48,云南省,楚雄州,武定县,云南省楚雄州武定县白路镇、高桥镇、猫街镇交界处三月山山脊,武定三月山风电场48MW工程,https://www.bidcenter.com.cn/newscontent-19406727-1.html,48MW,https://www.bidcenter.com.cn/newscontent-19406727-1.html,高,地理编码成功,云南省楚雄州武定县白路镇、高桥镇、猫街镇交界处三月山山脊,102.167597,25.544885,success: detail_address
3,中营风电,宜良中营风电场,80,云南省,昆明市,宜良县,云南省昆明市宜良县狗街镇和竹山镇一带,华润电力云南公司宜良中营风电场,https://m.bjx.com.cn/mnews/20230728/1322227.shtml,80MW,https://m.bjx.com.cn/mnews/20230728/1322227.shtml,高,地理编码成功,云南省昆明市宜良县狗街镇和竹山镇一带,103.1458,24.68076,success: detail_address
4,云海风电,云南麻栗坡云海风电场,100,云南省,文山州,麻栗坡县,云南省文山州麻栗坡县麻栗镇、下金厂乡、云海风电场（下金厂乡云海风电场）,中广核新能源云南云海风电场,https://www.dlzb.com/d-zb-42258472.html,100MW,https://news.sina.com.cn/zx/gj/2025-05-11/doc-ineweumx2276168.shtml,高,地理编码成功,云南省文山州麻栗坡县麻栗镇、下金厂乡、云海风电场（下金厂乡云海风电场）,104.752045,23.196694,success: detail_address
5,五台山（含三期）,曲靖五台山风电场,136,云南省,曲靖市,麒麟区,云南省曲靖市麒麟区珠街街道五台山,云南五台山136MW风电项目,https://news.bjx.com.cn/html/20160318/717212.shtml,136MW,https://m.bjx.com.cn/mnews/20141029/558973.shtml,高,地理编码成功,云南省曲靖市麒麟区珠街街道五台山,103.967333,25.498409,success: detail_address
6,五垴山,通海五垴山风电场,48,云南省,玉溪市,通海县,云南省玉溪市通海县杨广镇（与华宁县交界区域）,云南省玉溪市通海县五垴山风电场项目,https://www.docin.com/p-1281141894.html,48MW,https://www.docin.com/p-1281141894.html,高,地理编码成功,云南省玉溪市通海县杨广镇（与华宁县交界区域）,102.81796,24.17006,success: detail_address
7,五子坡（含三期）,华能大理五子坡风电场,148.5,云南省,大理州,,云南省大理州弥渡县/巍山县/大理市下关镇交界处山脊和台地,华能大理五子坡148.5MW风电工程,https://wind.in-en.com/html/wind-2251192.shtml,148.5MW,https://guangfu.bjx.com.cn/b2b/News/518730/news_view.html,高,地理编码成功,云南省大理州弥渡县/巍山县/大理市下关镇交界处山脊和台地,100.2568,25.537847,success: detail_address
8,仙人洞,仙人洞坡风电场,350,云南省,红河州,开远市,云南省红河州开远市灵泉街道、小龙潭镇交界处山脊,开远市仙人洞坡风电场,https://www.yn.gov.cn/ztgg/zxylcyfzqy/zdxmjsp/sgybxmpf/202203/t20220307_238004.html,350MW,https://so.html5.qq.com/page/real/search_news?docid=70000021_632645b2a6514152,高,地理编码成功,云南省红河州开远市灵泉街道、小龙潭镇交界处山脊,103.248003,23.708158,success: detail_address
9,冒天水风电场,富源西风电场（冒天水片区）,100,云南省,曲靖市,富源县,云南省曲靖市富源县中安街道多乐村至墨红镇三台村一带山梁,富源西风电场二期(冒天水片区),https://wind.imarine.cn/news/20943.html,100MW,https://wind.imarine.cn/news/20943.html,高,地理编码成功,云南省曲靖市富源县中安街道多乐村至墨红镇三台村一带山梁,104.25765,25.67903,success: detail_address
10,凤凰风电,待核实-疑似名称不完整,45,云南省,,,未找到（45MW云南凤凰风电场无公开信息，疑似名称不完整或数据错误；注：师宗丹凤风电场300MW，非同一项目）,未找到明确的云南凤凰风电场（45MW）,https://www.sohu.com/a/856132551_121956424,,,低,地理编码成功,凤凰风电场 云南 建设地点;凤凰山风电场 云南 45MW;丹凤风电场 师宗 300MW,100.101828,23.914964,success: province_city_district_detail
11,剑角峰风电场,开远剑角峰风电场,300,云南省,红河州,开远市,云南省红河州开远市中和营镇、乐白道街道一带山脊及山顶台地,开远剑角峰风电场,http://www.cpnn.com.cn/qiye/fadianPD2023/202307/t20230710_1616261.html,300MW,http://www.cpnn.com.cn/qiye/fadianPD2023/202307/t20230710_1616261.html,高,地理编码成功,云南省红河州开远市中和营镇、乐白道街道一带山脊及山顶台地,103.2725,23.71539,success: detail_address
12,大海梁子风电,会泽大海梁子风电场,48,云南省,曲靖市,会泽县,云南省曲靖市会泽县大海乡大海梁子主山脊（北起三道坪，南到白龙潭丫口）,会泽大海梁子风电场,https://wind.in-en.com/html/wind-2317325.shtml,48MW,https://wind.in-en.com/html/wind-2317325.shtml,高,地理编码成功,云南省曲靖市会泽县大海乡大海梁子主山脊（北起三道坪，南到白龙潭丫口）,103.22896,26.309717,success: detail_address
13,冷泉风电场,风吹山风电场,77,云南省,保山市,施甸县,云南省保山市施甸县甸阳镇、木老元乡、摆榔乡、仁和镇山脊,风吹山风电场,https://news.bjx.com.cn/html/20230811/1325160.shtml,77MW,https://news.bjx.com.cn/html/20230811/1325160.shtml,高,地理编码成功,云南省保山市施甸县甸阳镇、木老元乡、摆榔乡、仁和镇山脊,99.17187,24.77257,success: detail_address
14,大风坝,华能大理大风坝风电场,48,云南省,大理州,大理市,云南省大理州大理市南面者摩山（大风坝东西两侧山脊）,华能港灯大理大风坝风电场,https://www.big-bit.com/news/40245.html,48MW,https://m.bjx.com.cn/mnews/20081110/155091.shtml,高,地理编码成功,云南省大理州大理市南面者摩山（大风坝东西两侧山脊）,100.272056,25.544805,success: detail_address
15,大黑山风电场,开远大黑山风电场,270,云南省,红河州,开远市,云南省红河州开远市（中和营镇、乐白道街道、羊街镇一带）,大黑山风电场,https://news.bjx.com.cn/html/20150715/641953.shtml,270MW,https://news.bjx.com.cn/html/20150715/641953.shtml,高,地理编码成功,云南省红河州开远市（中和营镇、乐白道街道、羊街镇一带）,103.2725,23.71539,success: detail_address
16,弥勒西风电场,三峡弥勒西风电场,550,云南省,红河州,弥勒市,云南省红河州弥勒市西一镇、西二镇、五山乡、虹溪镇、巡检司镇,三峡能源云南弥勒西风电场,https://www.sohu.com/a/663382166_115239,550MW,https://www.sohu.com/a/663382166_115239,高,地理编码成功,云南省红河州弥勒市西一镇、西二镇、五山乡、虹溪镇、巡检司镇,103.26654,24.46412,success: detail_address
17,大海梁子（含二期）,会泽大海梁子风电场,48,云南省,曲靖市,会泽县,云南省曲靖市会泽县大海乡大海梁子主山脊（北起三道坪，南到白龙潭丫口）,大海梁子风电场,https://wind.in-en.com/html/wind-2317325.shtml,48MW,https://wind.in-en.com/html/wind-2317325.shtml,高,地理编码成功,云南省曲靖市会泽县大海乡大海梁子主山脊（北起三道坪，南到白龙潭丫口）,103.22896,26.309717,success: detail_address
18,大海梁子风电（金钟2期）,,,云南省,曲靖市,会泽县,云南省曲靖市会泽县（金钟镇、大海乡）,待核实,,,中,待核实,已完成,电场名称:,,,skipped: 确信度为空或待核实
19,待补风电,会泽待补风电场,,云南省,曲靖市,会泽县,云南省曲靖市会泽县南部驾车乡、田坝乡（一期188MW；二期位于会泽县南部山脊，涉及待补镇、上村乡、驾车乡，182.3MW）,会泽县待补风电场一期(会泽南)项目+待补风电二期,https://news.bjx.com.cn/html/20210609/1157419.shtml,,中,高,地理编码成功,,,,skipped: 确信度为空或待核实
20,弥勒东风电,永宁风电场（弥勒片区）,,云南省,红河州,弥勒市,"云南省红河州弥勒市东山镇（可能为永宁风电场弥勒片区一部分，无独立""东风风电场""信息）",待核实,,,中,待核实,部分命中,弥勒东风风电场 建设地点 地址,,,skipped: 确信度为空或待核实
21,待补风电,会泽待补风电场,189+182.3,云南省,曲靖市,会泽县,驾车乡、田坝乡,会泽待补风电场一期189MW+二期182.3MW,https://wind.in-en.com/html/wind-2408712.shtml,189MW+182.3MW,https://wind.in-en.com/html/wind-2408712.shtml,高,地理编码成功,驾车乡、田坝乡,103.36322,25.98827,success: detail_address
22,弥勒东风电,永宁风电场（弥勒片区）,23,云南省,红河州,弥勒市,东山镇,永宁风电项目南片区弥勒东风电场,https://www.163.com/dy/article/IE8KSJ5A055629B9.html,23MW（扩建）,https://so.html5.qq.com/page/real/search_news?docid=70000021_2886898646f17452,高,地理编码成功,云南省红河州弥勒市东山镇,103.6366,24.26199,success: province_city_district_detail
23,他期口,待核实-疑为村名或升压站,,云南省,,,"未找到（""他期口""可能为村名/小地名，无风电场以此命名，可能为升压站或机位点）",,低,待核实,,,未找到,他期口 云南 风电;他期口 会泽 风电 升压站 村,,,skipped: 确信度为空或待核实
24,仓房,会泽仓房风电场,48,云南省,曲靖市,会泽县,驾车乡大水村,会泽仓房风电场48MW,https://news.bjx.com.cn/html/20230222/1290232.shtml,48MW,https://news.bjx.com.cn/html/20230222/1290232.shtml,高,地理编码成功,驾车乡大水村,103.364568,26.051158,success: detail_address
25,保顶山,姚安保顶山风电场,,云南省,楚雄州,姚安县,云南省楚雄州姚安县前场镇,姚安保顶山风电场220kV升压站,https://www.bidcenter.com.cn/newscontent-74935937-4.html,,,高,已完成,电场名称:姚安保顶山风电场,101.234756,25.507264,success: province_city_district_detail
26,光梁子,富源光梁子风电场,48,云南省,曲靖市,富源县,后所镇,富源光梁子风电场,http://newenergy.in-en.com/html/newenergy-2286867.shtml,48MW,http://newenergy.in-en.com/html/newenergy-2286867.shtml,高,地理编码成功,后所镇,104.29482,25.80299,success: detail_address
27,凤屯,牟定凤屯风电场,49.5,云南省,楚雄州,牟定县,凤屯乡,中广核牟定凤屯风电场,https://www.bidcenter.com.cn/newscontent-7262225-1.html,49.5MW,https://www.bidcenter.com.cn/newscontent-7262225-1.html,高,地理编码成功,凤屯乡,101.45762,25.25345,success: detail_address
28,卓干山,禄劝卓干山风电场,36,云南省,昆明市,禄劝县,团街镇,禄劝卓干山风电场36MW,https://news.bjx.com.cn/html/20150715/642301.shtml,36MW,https://news.bjx.com.cn/html/20150715/642301.shtml,高,地理编码成功,团街镇,102.528,25.7656,success: detail_address
29,南庄,非风电场（南庄光伏电站）,,云南省,,,建水县南庄镇和岔科镇辖区内（确认为建水南庄光伏电站300MW，非风电场）,搜索结果为南庄光伏电站（300MW），非风电场,,,低,待核实,已确认非风电场,南庄风电场 云南 建水县 建设地点,,,skipped: 确信度为空或待核实
30,卢金山,待核实-疑为人名或误写,,云南省,,,"未找到（""卢金山""疑为人名或误写，无云南风电场以该名注册；尝试""鲁金山""亦无结果）",,未找到明确信息,中,待核实,,未找到,卢金山 云南 风电场;卢金山村 云南 曲靖 会泽;鲁金山 风电场 云南,,,skipped: 确信度为空或待核实
31,卫泸,永宁风电场（卫泸升压站）,,云南省,红河州,弥勒市,云南省红河州泸西县卫泸升压站附近,卫泸升压站,http://www.qianlima.com/gjxx/381333/index_29_2.html,,,高,地理编码成功,云南省红河州弥勒市云南省红河州泸西县卫泸升压站附近,103.45466,24.25447,success: province_city_district_detail
32,双龙,石林双龙箐风电场,49.5,云南省,昆明市,石林县,云南省昆明市石林县西街口镇、长湖镇、圭山镇附近,石林双龙箐风电场,http://news.bjx.com.cn/html/20130116/413820.shtml,49.5MW,http://news.bjx.com.cn/html/20130116/413820.shtml,高,地理编码成功,云南省昆明市石林县西街口镇、长湖镇、圭山镇附近,103.642746,24.836819,success: detail_address
33,向阳山,新平向阳山风电场,49.5,云南省,玉溪市,新平县,建兴乡,新平县向阳山风电场,https://news.bjx.com.cn/html/20140822/539329.shtml,49.5MW,https://news.bjx.com.cn/html/20140822/539329.shtml,高,地理编码成功,建兴乡,101.6352,23.68102,success: detail_address
34,哈科迪梁子风电场,新平哈科迪梁子风电场,49.5,云南省,玉溪市,新平县,新化乡,新平哈科迪梁子风电场,https://news.bjx.com.cn/html/20170616/831621.shtml,49.5MW,https://news.bjx.com.cn/html/20170616/831621.shtml,高,地理编码成功,云南省玉溪市新平县新化乡,101.85624,24.10913,success: province_city_district_detail
35,回龙梁子,金钟风电场一期回龙梁子升压站,（升压站名，非独立风电场）,云南省,曲靖市,会泽县,云南省曲靖市会泽县老厂乡（回龙梁子为金钟风电场一期的110kV升压站所在地，非独立风电场；金钟风电场一期涉及老厂乡、五星乡、娜姑镇、宝云街道、古城街道、以礼街道、钟屏街道）,金钟风电场一期110kV回龙梁子升压站,https://www.sohu.com/a/755508424_121613636,,,高,地理编码成功,云南省曲靖市会泽县待核实,103.498502,26.233661,success: detail_address
36,基洛山,弥勒基洛山升压站,,云南省,红河州,弥勒市,"云南省红河州弥勒市西部山区,共安装 88台风电机组, 其中20台5.0兆瓦、8台6.0兆瓦、60台6.7兆瓦机型,88台风力发电机组",基洛山升压站为弥勒西风电场配套设施,https://www.hh.gov.cn/info/11621/702502.htm,,,高,地理编码成功,云南省红河州弥勒市弥勒基洛山升压站,103.42951,24.41097,success: province_city_district_name
37,塔甸,峨山塔甸风电场,50MW,云南省,玉溪市,峨山县,塔甸镇,峨山县塔甸风电场,https://wind.in-en.com/html/wind-2286867.shtml,50MW,https://wind.in-en.com/html/wind-2286867.shtml,高,地理编码成功,塔甸镇,102.15743,24.25119,success: detail_address
38,大中山,大姚大中山风电场,49.5,云南省,楚雄州,大姚县,云南省楚雄州大姚县金碧镇和姚安县前场镇交界罗么乍箐头-松子山-大中山山脊,大中山风电场,https://www.163.com/dy/article/JBC3BD2Q0514C30V.html,49.5MW,https://www.163.com/dy/article/JBC3BD2Q0514C30V.html,高,地理编码成功,云南省楚雄州大姚县金碧镇和姚安县前场镇交界罗么乍箐头-松子山-大中山山脊,101.32199,25.72094,success: detail_address
39,大坪子,永善大坪子风电场,49.5,云南省,昭通市,永善县,伍寨乡,永善大坪子风电场,https://news.bjx.com.cn/html/20141124/567127.shtml,49.5MW,https://news.bjx.com.cn/html/20141124/567127.shtml,高,地理编码成功,伍寨乡,103.5243,27.60645,success: detail_address
40,大牛（含二期）,石屏大牛风电场,48+35,云南省,红河州,石屏县,牛街镇,石屏大牛风电场,https://newenergy.in-en.com/html/newenergy-2241288.shtml,48MW+二期35MW,https://newenergy.in-en.com/html/newenergy-2241288.shtml,高,地理编码成功,云南省红河州石屏县牛街镇,102.43562,23.45262,success: province_city_district_detail
41,大田,,,贵州省,,,贵州省毕节市金沙县大田乡、平坝镇,搜索结果为贵州金沙大田风电场，非云南,,,低,待核实,跳过,,,,skipped: 确信度为空或待核实
42,大绿山（含文兴北区）,中广核宣威大绿山风电场,,云南省,曲靖市,宣威市,宝山镇,中广核宣威大绿山风电场,https://www.xw.gov.cn/news/detail/54/33157.html,,,高,地理编码成功,云南省曲靖市宣威市宝山镇,104.46305,26.31484,success: province_city_district_detail
43,大莫古（含扩建）,陆良大莫古风电场,49.5,云南省,曲靖市,陆良县,大莫古镇,陆良大莫古风电场,https://m.bjx.com.cn/mnews/20121011/393615.shtml,49.5MW,https://m.bjx.com.cn/mnews/20121011/393615.shtml,高,地理编码成功,大莫古镇,103.5128,24.90346,success: detail_address
44,老尖山（含扩建）,大姚老尖山风电场,49.5+75,云南省,楚雄州,大姚县,云南省楚雄州大姚县与姚安县交界保顶山（距大姚县城约23km）,大姚老尖山风电场,https://www.sohu.com/a/1004000521_115377,49.5MW+扩建75MW,https://www.sohu.com/a/1004000521_115377,高,地理编码成功,云南省楚雄州大姚县与姚安县交界保顶山（距大姚县城约23km）,101.322344,25.716597,success: detail_address
45,大风丫口,富民大风丫口风电场,49.5,云南省,昆明市,富民县,永定镇/团结街道,大风丫口风电场,https://m.bjx.com.cn/mnews/20130409/427406.shtml,49.5MW（与马英山共用升压站）,https://m.bjx.com.cn/mnews/20130409/427406.shtml,高,地理编码成功,云南省昆明市富民县永定镇/团结街道,102.492719,25.225968,success: province_city_district_detail
46,马英山,富民马英山风电场,40.5,云南省,昆明市,富民县/西山区,云南省昆明市西山区与富民县交界的马英山山脊,马英山风电场,https://m.bjx.com.cn/mnews/20130409/427406.shtml,40.5MW,https://m.bjx.com.cn/mnews/20130409/427406.shtml,高,地理编码成功,云南省昆明市西山区与富民县交界的马英山山脊,102.69041,24.96725,success: detail_address
47,金铜盆,富民金铜盆风电场,38,云南省,昆明市,富民县,云南省昆明市富民县金铜盆山山脊,金铜盆风电场,https://m.bjx.com.cn/mnews/20130409/427406.shtml,38MW,https://m.bjx.com.cn/mnews/20130409/427406.shtml,高,地理编码成功,云南省昆明市富民县金铜盆山山脊,102.406694,25.28249,success: detail_address
48,卓干山（含二期）,富民卓干山风电场,,云南省,昆明市,富民县,云南省昆明市富民县与西山区交界的卓干山山脊,卓干山风电场,https://news.bjx.com.cn/html/20150715/642301.shtml,,,高,地理编码成功,云南省昆明市富民县与西山区交界的卓干山山脊,102.651464,25.449445,success: detail_address
49,将军山,华宁将军山风电场,49.5,云南省,玉溪市,华宁县,云南省玉溪市华宁县宁州镇、通红甸乡老象山脉大水井岩头山脊,将军山风电场,https://so.html5.qq.com/page/real/search_news?docid=70000021_2176221f15018552,49.5MW,https://so.html5.qq.com/page/real/search_news?docid=70000021_2176221f15018552,高,地理编码成功,云南省玉溪市华宁县宁州镇、通红甸乡老象山脉大水井岩头山脊,102.9208,24.19045,success: detail_address
50,磨豆山,华宁磨豆山风电场,49.5,云南省,玉溪市,华宁县,云南省玉溪市华宁县与江川区交界处磨豆山,磨豆山风电场,https://so.html5.qq.com/page/real/search_news?docid=70000021_2176221f15018552,49.5MW,https://so.html5.qq.com/page/real/search_news?docid=70000021_2176221f15018552,高,地理编码成功,云南省玉溪市华宁县与江川区交界处磨豆山,102.93221,24.19969,success: detail_address
51,大丫口,华宁大丫口风电场,49.5,云南省,玉溪市,华宁县,云南省玉溪市华宁县宁州镇/通红甸乡/盘溪镇老象山脉大水井岩头山脊,大丫口风电场,https://so.html5.qq.com/page/real/search_news?docid=70000021_2176221f15018552,49.5MW,https://so.html5.qq.com/page/real/search_news?docid=70000021_2176221f15018552,高,地理编码成功,云南省玉溪市华宁县宁州镇/通红甸乡/盘溪镇老象山脉大水井岩头山脊,103.048092,24.232165,success: detail_address
52,李子箐,泸西李子箐风电场,,云南省,红河州,泸西县,云南省红河州泸西县周边山梁（李子箐/东山/东华/大坡顶各期工程）,李子箐风电场（含四期）,https://m.bjx.com.cn/mnews/20150122/584065.shtml,168MW,https://m.bjx.com.cn/mnews/20150122/584065.shtml,高,已完成,,,,skipped: 确信度为空或待核实
53,龙潭,陆良龙潭风电场,49.5,云南省,曲靖市,陆良县,云南省曲靖市陆良县境内,龙潭风电场,https://ynb.nea.gov.cn/dtyw/zcgz/202309/t20230911_35099.html,49.5MW,https://ynb.nea.gov.cn/dtyw/zcgz/202309/t20230911_35099.html,高,地理编码成功,云南省曲靖市陆良县境内,103.719704,24.903682,success: detail_address
54,马塘,陆良马塘风电场,49.5,云南省,曲靖市,陆良县,云南省曲靖市陆良县马塘镇,马塘风电场,https://ynb.nea.gov.cn/dtyw/zcgz/202309/t20230911_35099.html,49.5MW,https://ynb.nea.gov.cn/dtyw/zcgz/202309/t20230911_35099.html,高,地理编码成功,云南省曲靖市陆良县马塘镇,103.75595,24.96007,success: detail_address
55,罗平山（含改造）,洱源罗平山风电场,48.75+115.5,云南省,大理州,洱源县,乔后/炼铁/凤羽/茈碧,罗平山风电场,https://news.bjx.com.cn/topics/luopingshanfengdianchang/,48.75MW+改造115.5MW,https://www.sohu.com/a/1000105893_120444679,高,地理编码成功,云南省大理州洱源县乔后/炼铁/凤羽/茈碧,99.95817,26.11609,success: province_city_district_detail
56,野牛风电场,东川野牛风电场,48+48,云南省,昆明市,东川区,铜都街道/野牛村,东川野牛风电场,https://news.bjx.com.cn/html/20210331/1145011.shtml,48MW+48MW,https://news.bjx.com.cn/html/20210331/1145011.shtml,高,地理编码成功,铜都街道/野牛村,103.228913,25.991657,success: detail_address
57,野牛（含二期）,东川野牛风电场（一+二期）,96,云南省,昆明市,东川区,铜都街道,东川野牛风电场,https://news.bjx.com.cn/html/20210331/1145011.shtml,96MW,https://news.bjx.com.cn/html/20210331/1145011.shtml,高,地理编码成功,铜都街道,103.18777,26.07014,success: detail_address
58,杨梅山,陆良杨梅山风电场,49.5,云南省,曲靖市,陆良县,板桥镇,陆良杨梅山风电场,https://wind.in-en.com/html/wind-2343799.shtml,49.5MW,https://wind.in-en.com/html/wind-2343799.shtml,高,地理编码成功,云南省曲靖市陆良县板桥镇,103.74601,25.12493,success: province_city_district_detail
59,恩兆山,洱源恩兆山风电场,,云南省,大理州,洱源县,云南省大理州洱源县恩兆山,恩兆山风电场与罗平山相邻,https://news.bjx.com.cn/html/20080219/106857.shtml,,,高,地理编码成功,云南省大理州洱源县恩兆山,99.913065,26.226577,success: detail_address
60,骑龙山,洱源骑龙山风电场,126,云南省,大理州,洱源县,云南省大理州洱源县凤羽镇/乔后镇骑龙山,洱源骑龙山风电场,https://news.bjx.com.cn/html/20210331/1145011.shtml,126MW,https://news.bjx.com.cn/html/20210331/1145011.shtml,高,地理编码成功,云南省大理州洱源县凤羽镇/乔后镇骑龙山,99.811353,26.078679,success: detail_address
61,通泉（含扩建）,马龙通泉风电场,350,云南省,曲靖市,马龙区,云南省曲靖市马龙区月望乡/纳章镇与麒麟区、陆良县交界山脊,通泉风电场,https://so.html5.qq.com/page/real/search_news?docid=70000021_05260d6a68948152,350MW,https://so.html5.qq.com/page/real/search_news?docid=70000021_05260d6a68948152,高,地理编码成功,云南省曲靖市马龙区云南省曲靖市马龙区月望乡/纳章镇与麒麟区、陆良县交界山脊,103.647077,25.369555,success: province_city_district_detail
62,白泥井,会泽白泥井风电场,32,云南省,曲靖市,会泽县,驾车乡,白泥井风电场,https://wind.in-en.com/html/wind-2293875.shtml,32MW,https://wind.in-en.com/html/wind-2293875.shtml,高,地理编码成功,驾车乡,103.36322,25.98827,success: detail_address
63,清水海,寻甸清水海风电场,49.5,云南省,昆明市,寻甸县,六哨乡,清水海风电场,https://news.bjx.com.cn/topics/qingshuihaifengdianchang/,49.5MW,https://news.bjx.com.cn/topics/qingshuihaifengdianchang/,高,地理编码成功,六哨乡,102.96918,25.62407,success: detail_address
64,大海子,寻甸大海子风电场,49.5,云南省,昆明市,寻甸县,云南省昆明市寻甸县六哨乡大海子村,大海子风电场（清水海风电场一片区）,https://www.bidcenter.com.cn/newscontent-7565125-1.html,49.5MW,https://www.bidcenter.com.cn/newscontent-7565125-1.html,高,地理编码成功,云南省昆明市寻甸县六哨乡大海子村,102.980596,25.567123,success: detail_address
65,海洋哨,寻甸海洋哨风电场,49.5,云南省,昆明市,寻甸县,云南省昆明市寻甸县六哨乡大窝铺村以西、大川峰村以东,海洋哨风电场（清水海一片区）,https://www.bidcenter.com.cn/newscontent-7565125-1.html,49.5MW,https://www.bidcenter.com.cn/newscontent-7565125-1.html,高,地理编码成功,云南省昆明市寻甸县六哨乡大窝铺村以西、大川峰村以东,102.926671,25.515479,success: detail_address
66,横河,寻甸横河风电场,49.5,云南省,昆明市,寻甸县,云南省昆明市寻甸县西南部柯渡镇与六哨乡,横河风电场（清水海一片区）,https://www.bidcenter.com.cn/newscontent-7565125-1.html,49.5MW,https://www.bidcenter.com.cn/newscontent-7565125-1.html,高,地理编码成功,云南省昆明市寻甸县西南部柯渡镇与六哨乡,102.96691,25.62508,success: detail_address
67,洒谷,巧家洒谷风电场,49.5,云南省,昭通市,巧家县,云南省昭通市巧家县崇溪镇洒谷村一带山脊,洒谷风电场,https://www.zbytb.com/s-zb-52060886.html,49.5MW,https://www.zbytb.com/s-zb-52060886.html,高,地理编码成功,云南省昭通市巧家县崇溪镇洒谷村一带山脊,103.10673,26.810991,success: detail_address
68,新厂沟,巧家新厂沟风电场,49.5,云南省,昭通市,巧家县,云南省昭通市巧家县崇溪镇北侧山区（新厂沟和中村山脊，海拔3000~3200米）,新厂沟风电场,https://www.zbytb.com/s-zb-52060886.html,49.5MW,https://www.zbytb.com/s-zb-52060886.html,高,地理编码成功,云南省昭通市巧家县崇溪镇北侧山区（新厂沟和中村山脊，海拔3000~3200米）,103.117018,26.905613,success: detail_address
69,海坝,巧家海坝风电场,49.5,云南省,昭通市,巧家县,云南省昭通市巧家县崇溪镇（海拔2850-3200米山脊）,海坝风电场,https://www.zbytb.com/s-zb-52060886.html,49.5MW,https://www.zbytb.com/s-zb-52060886.html,高,地理编码成功,云南省昭通市巧家县崇溪镇（海拔2850-3200米山脊）,103.15435,26.915678,success: detail_address
70,猴子山,个旧猴子山风电场,200,云南省,红河州,个旧市,云南省红河州个旧市老厂镇和卡房镇之间山脊,猴子山风电场,https://wind.imarine.cn/news/32552.html,200MW,https://wind.imarine.cn/news/32552.html,高,地理编码成功,云南省红河州个旧市老厂镇和卡房镇之间山脊,103.16752,23.1467,success: detail_address
71,大龙山,文山大龙山风电场/华宁大龙山风电场,24.3/56.25,云南省,文山州/玉溪市,丘北县/华宁县,云南省文山州丘北县腻脚乡大龙山（文山大龙山）/云南省玉溪市华宁县青龙镇东北部（华宁大龙山）,大龙山风电场,https://newenergy.in-en.com/html/newenergy-2451276.shtml,24.3MW（丘北）+56.25MW（华宁）,,高,地理编码成功,云南省文山州丘北县腻脚乡大龙山（文山大龙山）/云南省玉溪市华宁县青龙镇东北部（华宁大龙山）,103.086997,24.499422,success: detail_address
72,长田,昌宁长田风电场,43.75,云南省,保山市,昌宁县,温泉镇/漭水镇,长田风电场,https://www.163.com/dy/article/JQCC8D9J0512C38J.html,43.75MW,https://www.163.com/dy/article/JQCC8D9J0512C38J.html,高,地理编码成功,云南省保山市昌宁县温泉镇/漭水镇,99.698939,24.910842,success: province_city_district_detail
73,中寨,昌宁中寨风电场,37.5,云南省,保山市,昌宁县,温泉镇/田园镇,中寨风电场,https://finance.sina.com.cn/stock/aigc/tzxm/2026-04-08/doc-inhtuupu2724376.shtml,37.5MW,https://finance.sina.com.cn/stock/aigc/tzxm/2026-04-08/doc-inhtuupu2724376.shtml,高,地理编码成功,云南省保山市昌宁县温泉镇/田园镇,99.69773,24.69925,success: province_city_district_detail
74,富源西（含四期）,富源西风电场,800,云南省,曲靖市,富源县,中安街道/墨红镇,富源西风电场（国家电投）,https://www.sohu.com/a/674611212_121123698,800MW+四期147.4MW,https://www.sohu.com/a/674611212_121123698,高,地理编码成功,中安街道/墨红镇,104.25239,25.66635,success: detail_address
75,西泽,宣威西泽风电场,210,云南省,曲靖市,宣威市,务德镇/西泽乡/热水镇,宣威西泽风电场,https://www.sohu.com/a/749738719_121613636,210MW,https://www.sohu.com/a/749738719_121613636,高,地理编码成功,云南省曲靖市宣威市务德镇/西泽乡/热水镇,103.72044,26.26758,success: province_city_district_detail
76,巨龙梁,寻甸巨龙梁风电场,100,云南省,昆明市,寻甸县,金源乡/倘甸镇,巨龙梁风电场,https://zhuanlan.zhihu.com/p/599762000,100MW,https://zhuanlan.zhihu.com/p/599762000,高,地理编码成功,金源乡/倘甸镇,102.92251,25.77179,success: detail_address
77,高本山,寻甸高本山风电场,49.5,云南省,昆明市,寻甸县,云南省昆明市寻甸县高本山,高本山风电场（与巨龙梁共用升压站）,https://www.docin.com/p-2042858485.html,49.5MW,https://www.docin.com/p-2042858485.html,高,地理编码成功,云南省昆明市寻甸县高本山,103.406457,25.524794,success: detail_address
78,文兴,宣威文兴风电场,480,云南省,曲靖市,宣威市,云南省曲靖市宣威市东部及东北部一带山脊,文兴风电场,https://so.html5.qq.com/page/real/search_news?docid=70000021_71360370d4791452,480MW,https://so.html5.qq.com/page/real/search_news?docid=70000021_71360370d4791452,高,地理编码成功,云南省曲靖市宣威市东部及东北部一带山脊,104.10586,26.22247,success: detail_address
79,金钟,会泽金钟风电场,470,云南省,曲靖市,会泽县,云南省曲靖市会泽县（老厂片区/金钟片区/大海片区）,金钟风电场,https://so.html5.qq.com/page/real/search_news?docid=70000021_3525fd4ce7c48952,470MW,https://so.html5.qq.com/page/real/search_news?docid=70000021_3525fd4ce7c48952,高,地理编码成功,云南省曲靖市会泽县（老厂片区/金钟片区/大海片区）,103.139498,26.55687,success: detail_address
80,丹凤,曲靖丹凤风电场,300,云南省,曲靖市,麒麟区,"云南省曲靖市师宗县雄壁镇､竹基镇､漾月街道､葵山镇､彩云镇等五个乡镇境内,北纬24°40′~25°02′,东经103°42′~1",丹凤风电场,https://so.html5.qq.com/page/real/search_news?docid=70000021_3525fd4ce7c48952,300MW,https://so.html5.qq.com/page/real/search_news?docid=70000021_3525fd4ce7c48952,高,地理编码成功,云南省曲靖市麒麟区曲靖丹凤风电场,103.82197,25.48278,success: province_city_district_name
81,平坝（含三期）,文山平坝风电场,200,云南省,文山州,文山市,平坝镇/新街乡等,平坝风电场,https://wenshan.yunnan.cn/system/2024/12/27/033349416.shtml,200MW,https://wenshan.yunnan.cn/system/2024/12/27/033349416.shtml,高,地理编码成功,云南省文山州文山市平坝镇/新街乡等,104.079304,23.222225,success: province_city_district_detail
82,舍得（赶马路）,丘北舍得风电场,49.5,云南省,文山州,丘北县,舍得乡,丘北舍得风电场（赶马路片区）,https://news.bjx.com.cn/html/20130917/460323.shtml,49.5MW,https://news.bjx.com.cn/html/20130917/460323.shtml,高,地理编码成功,舍得乡,103.86636,24.23799,success: detail_address
83,羊雄山,丘北羊雄山风电场,99,云南省,文山州,丘北县,舍得乡,羊雄山风电场,https://news.bjx.com.cn/html/20130917/460323.shtml,99MW,https://news.bjx.com.cn/html/20130917/460323.shtml,高,地理编码成功,舍得乡,103.86636,24.23799,success: detail_address
84,火特,华宁火特风电场,100,云南省,玉溪市,华宁县,通红甸乡,火特风电场,https://wind.in-en.com/html/wind-2434593.shtml,100MW,https://wind.in-en.com/html/wind-2434593.shtml,高,地理编码成功,通红甸乡,103.06899,24.33568,success: detail_address
85,起则,华宁起则风电场,100,云南省,玉溪市,华宁县,"玉溪市华宁县北部青龙镇｡场址地理坐标介于北纬2419′~2434′,东经10257'~1036'之间｡规划场区东西宽在4",起则风电场,https://www.yn.gov.cn/ztgg/zxylcyfzqy/zdxmjsp/sgybxmpf/202205/t20220501_241636.html,100MW,https://www.yn.gov.cn/ztgg/zxylcyfzqy/zdxmjsp/sgybxmpf/202205/t20220501_241636.html,高,地理编码成功,云南省玉溪市华宁县华宁起则风电场,102.92835,24.19199,success: province_city_district_name
86,阿用,富宁阿用风电场,100,云南省,文山州,富宁县,板仑乡,阿用风电场,https://so.html5.qq.com/page/real/search_news?docid=70000021_1316274a41231952,100MW,https://so.html5.qq.com/page/real/search_news?docid=70000021_1316274a41231952,高,地理编码成功,板仑乡,105.69712,23.55894,success: detail_address
87,蜜蜂山,丘北蜜蜂山风电场,49.5,云南省,文山州,丘北县,腻脚乡,蜜蜂山风电场,https://www.zbytb.com/s-zb-52162596.html,49.5MW,https://www.zbytb.com/s-zb-52162596.html,高,地理编码成功,腻脚乡,103.84921,24.04244,success: detail_address
88,阿用,富宁阿用风电场,200,云南省,文山州,富宁县,归朝镇/板仑乡,富宁阿用风电场,https://finance.sina.com.cn/roll/2024-11-26/doc-incxkpaq4250971.shtml,200MW,https://finance.sina.com.cn/roll/2024-11-26/doc-incxkpaq4250971.shtml,高,地理编码成功,归朝镇/板仑乡,105.85231,23.65423,success: detail_address
89,菲古,文山菲古风电场,49.5,云南省,文山州,文山市,薄竹镇,菲古风电场,http://www.dlztb.com/news/202411/28/107597.html,49.5MW,http://www.dlztb.com/news/202411/28/107597.html,高,地理编码成功,薄竹镇,103.94309,23.48012,success: detail_address
90,麦子箐,马关麦子箐风电场,49.5,云南省,文山州,马关县,八寨镇,马关麦子箐风电场,http://www.dlztb.com/news/202411/28/107597.html,49.5MW,http://www.dlztb.com/news/202411/28/107597.html,高,地理编码成功,八寨镇,104.06253,23.00842,success: detail_address
91,金龙山,丘北金龙山风电场,49.5,云南省,文山州,丘北县,八道哨乡,金龙山风电场,http://www.dlztb.com/news/202411/28/107597.html,49.5MW,http://www.dlztb.com/news/202411/28/107597.html,高,地理编码成功,八道哨乡,104.08502,24.1002,success: detail_address
92,朵古,蒙自朵古风电场,49.5,云南省,红河州,蒙自市,西北勒乡,朵古风电场,http://news.bjx.com.cn/html/20200306/1051411.shtml,49.5MW,http://news.bjx.com.cn/html/20200306/1051411.shtml,高,地理编码成功,西北勒乡,103.4693,23.4837,success: detail_address
93,老寨,蒙自老寨风电场,49.5,云南省,红河州,蒙自市,云南省红河州蒙自市老寨乡北部、鸣鹫镇东部一带山脊,老寨风电场,http://yn.people.com.cn/n2/2021/0827/c372456-34887424.html,49.5MW,http://yn.people.com.cn/n2/2021/0827/c372456-34887424.html,高,地理编码成功,云南省红河州蒙自市老寨乡北部、鸣鹫镇东部一带山脊,103.692573,23.398029,success: detail_address
94,李子箐,泸西李子箐风电场,168,云南省,红河州,泸西县,云南省红河州泸西县周边山梁（李子箐/东山/东华/大坡顶各期工程）,李子箐风电场（含四期）,https://m.bjx.com.cn/mnews/20150122/584065.shtml,168MW,https://m.bjx.com.cn/mnews/20150122/584065.shtml,高,地理编码成功,云南省红河州泸西县周边山梁（李子箐/东山/东华/大坡顶各期工程）,103.810358,24.441752,success: detail_address
95,牦牛坪,宁蒗牦牛坪风电场,49.5,云南省,丽江市,宁蒗县,新营盘镇/烂泥箐镇,牦牛坪风电场,http://news.bjx.com.cn/html/20200306/1051411.shtml,49.5MW,http://news.bjx.com.cn/html/20200306/1051411.shtml,高,地理编码成功,新营盘镇/烂泥箐镇,100.97964,27.22362,success: detail_address
96,弥勒东（含扩建）,永宁风电场（弥勒片区）,23+230,云南省,红河州,弥勒市,东山镇,永宁风电场弥勒片区,https://m.bjx.com.cn/mnews/20230915/1332127.shtml,23MW+扩建230MW,https://m.bjx.com.cn/mnews/20230915/1332127.shtml,高,地理编码成功,云南省红河州弥勒市东山镇,103.6366,24.26199,success: province_city_district_detail
97,老路梁子,永善老路梁子风电场,66,云南省,昭通市,永善县,伍寨乡,老路梁子风电场,https://www.163.com/dy/article/I5ES42V30534BDCQ.html,66MW,https://www.163.com/dy/article/I5ES42V30534BDCQ.html,高,地理编码成功,伍寨乡,103.5243,27.60645,success: detail_address
98,盘江（含扩建）,沾益盘江风电场,180,云南省,曲靖市,沾益区,盘江镇/菱角乡,盘江风电场,https://finance.sina.com.cn/jjxw/2023-12-29/doc-imzzsiza3632713.shtml,180MW,https://finance.sina.com.cn/jjxw/2023-12-29/doc-imzzsiza3632713.shtml,高,地理编码成功,云南省曲靖市沾益区盘江镇/菱角乡,103.83382,25.75394,success: province_city_district_detail
99,白石头,待核实-疑为升压站名或山名,,云南省,,,"未找到（""白石头""为常见地名，无云南风电场以该名注册，可能是升压站或山名）",,未找到明确信息,中,待核实,,多次搜索未找到,白石头风电场 云南 建设地点;白石头 云南 升压站 风电;白石头 风电场 会泽 升压站,,,skipped: 确信度为空或待核实
100,小井山/小箐山,姚安小箐山风电场,46,云南省,楚雄州,姚安县,云南省楚雄州姚安县城东北面光禄镇、栋川镇小箐山山脊,小箐山风电场,https://www.fanpusoft.com/jianzhu/gcgl/416695.html,46MW,https://www.fanpusoft.com/jianzhu/gcgl/416695.html,高,地理编码成功,云南省楚雄州姚安县城东北面光禄镇、栋川镇小箐山山脊,101.23845,25.5016,success: detail_address
101,大赖石山（含五期）,巧家赖石山风电场,223.5,云南省,昭通市,巧家县,崇溪镇,赖石山风电场,https://www.163.com/dy/article/IUUVFALA0534BDCQ.html,223.5MW,https://www.163.com/dy/article/IUUVFALA0534BDCQ.html,高,地理编码成功,崇溪镇,103.13171,26.86119,success: detail_address
102,大岩洞,巧家大岩洞风电场,39,云南省,昭通市,巧家县,云南省昭通市巧家县崇溪镇北侧山区大岩洞山脊,大岩洞风电场,https://news.bjx.com.cn/html/20120903/384926.shtml,39MW,https://news.bjx.com.cn/html/20120903/384926.shtml,高,地理编码成功,云南省昭通市巧家县崇溪镇北侧山区大岩洞山脊,103.186748,26.87084,success: detail_address
103,三股水,巧家三股水风电场,49.5,云南省,昭通市,巧家县,云南省昭通市巧家县崇溪镇三股水附近山区,三股水风电场（与赖石山相关）,https://www.ztnews.net/article/show-335201.html,49.5MW,https://www.ztnews.net/article/show-335201.html,高,地理编码成功,云南省昭通市巧家县崇溪镇三股水附近山区,103.08249,26.805929,success: detail_address
104,马桑井,寻甸马桑井风电场,49.5+5,云南省,昆明市,寻甸县,云南省昆明市寻甸县甸沙乡苏撒坡村,马桑井风电场,http://yndrc.yn.gov.cn/html/2025/xiangmupifujieguo_0102/19257.html,49.5MW+扩建5MW,http://yndrc.yn.gov.cn/html/2025/xiangmupifujieguo_0102/19257.html,高,地理编码成功,云南省昆明市寻甸县甸沙乡苏撒坡村,103.143995,25.729554,success: detail_address
105,发白冲,石屏发白冲风电场,49.5,云南省,红河州,石屏县,云南省红河州石屏县哨冲镇、龙武镇、龙朋镇境内,发白冲风电场,https://news.bjx.com.cn/html/20220624/1236072.shtml,49.5MW,https://news.bjx.com.cn/html/20220624/1236072.shtml,高,地理编码成功,云南省红河州石屏县哨冲镇、龙武镇、龙朋镇境内,102.4015,24.00276,success: detail_address
106,罗平西（含二期）,罗平西风电场,165,云南省,曲靖市,罗平县,阿岗镇/马街镇,罗平西风电场一期,https://wind.in-en.com/html/wind-2435539.shtml,165MW,https://wind.in-en.com/html/wind-2435539.shtml,高,地理编码成功,云南省曲靖市罗平县阿岗镇/马街镇,104.10701,25.07657,success: province_city_district_detail
107,清水郎山,寻甸清水郎山风电场,49.5,云南省,昆明市,寻甸县,"昆明市寻甸回族彝族自治县,规划场址位于清水海水库西南方向,六哨､先锋和金所三个乡镇交界的山脊地带,地理坐标介于北纬25°30′31.25″~25°37",清水郎山风电场,https://news.bjx.com.cn/html/20220624/1236072.shtml,49.5MW,https://news.bjx.com.cn/html/20220624/1236072.shtml,高,地理编码成功,云南省昆明市寻甸县寻甸清水郎山风电场,102.92462,25.7706,success: province_city_district_name
108,大王岩,巧家大王岩风电场,70,云南省,昭通市,巧家县,云南省昭通市巧家县崇溪镇/新店镇大王岩一带山脊,大王岩风电场,https://news.bjx.com.cn/html/20220624/1236072.shtml,70MW,https://news.bjx.com.cn/html/20220624/1236072.shtml,高,地理编码成功,云南省昭通市巧家县崇溪镇/新店镇大王岩一带山脊,103.080831,26.933824,success: detail_address
109,大龙口,姚安大龙口风电场,145,云南省,楚雄州,姚安县,云南省楚雄州姚安县城东面山地（总装机145MW；一期梅家山49.5MW、二期尖山梁子49.5MW、三期小箐山46MW）,云南姚安大龙口风电场（三峡新能源）,https://www.sohu.com/a/148909839_778475,145MW,https://www.sohu.com/a/148909839_778475,高,地理编码成功,大龙口风电场 云南 建设地点,,,skipped: 确信度为空或待核实
110,大丫口（含二期）,华宁大丫口风电场,49.5+49.5,云南省,玉溪市,华宁县,云南省玉溪市华宁县宁州镇/通红甸乡/盘溪镇老象山脉大水井岩头山脊,大丫口风电场,https://so.html5.qq.com/page/real/search_news?docid=70000021_2176221f15018552,49.5MW,https://so.html5.qq.com/page/real/search_news?docid=70000021_2176221f15018552,高,地理编码成功,云南省玉溪市华宁县宁州镇/通红甸乡/盘溪镇老象山脉大水井岩头山脊,103.048092,24.232165,success: detail_address
111,者坪山,洱源罗坪山风电场,210,云南省,大理州,洱源县,茈碧/凤羽/炼铁/乔后,罗坪山风电场,https://baike.baidu.com/item/洱源罗坪山风电场/2504513,210MW,https://baike.baidu.com/item/洱源罗坪山风电场/2504513,高,地理编码成功,云南省大理州洱源县茈碧/凤羽/炼铁/乔后,99.95817,26.11609,success: province_city_district_detail
112,杨家房（含野猫山）,祥云野猫山/杨家房风电场,49.5+36,云南省,大理州,祥云县,东山彝族乡,野猫山+杨家房风电场,https://www.dowater.com/zhaobiao/2023-03-15/3532090.asp,49.5MW+36MW,https://www.dowater.com/zhaobiao/2023-03-15/3532090.asp,高,地理编码成功,云南省大理州祥云县东山彝族乡,100.931605,25.682642,success: province_city_district_detail
113,白鹤厂,祥云白鹤厂风电场,50,云南省,大理州,祥云县,沙龙镇,白鹤厂风电场,https://www.dowater.com/zhaobiao/2023-03-15/3532090.asp,50MW,https://www.dowater.com/zhaobiao/2023-03-15/3532090.asp,高,地理编码成功,沙龙镇,100.60707,25.46226,success: detail_address
114,阿岗（含二期）,罗平阿岗风电场,49.5+55,云南省,曲靖市,罗平县,阿岗镇/马街镇,阿岗风电场,http://news.bjx.com.cn/html/20150715/642151.shtml,49.5MW+55MW,http://news.bjx.com.cn/html/20150715/642151.shtml,高,地理编码成功,云南省曲靖市罗平县阿岗镇/马街镇,104.10701,25.07657,success: province_city_district_detail
115,罗平西（一期）,罗平西风电场一期(阿岗片区),215,云南省,曲靖市,罗平县/麒麟区,阿岗镇/马街镇,罗平西风电场一期,https://yndrc.yn.gov.cn/html/2021/xiangmupifujieguo_1002/8280.html,215MW,https://yndrc.yn.gov.cn/html/2021/xiangmupifujieguo_1002/8280.html,高,地理编码成功,云南省曲靖市罗平县/麒麟区阿岗镇/马街镇,104.10701,25.07657,success: province_city_district_detail
116,九龙山,罗平九龙山风电场,165,云南省,曲靖市,罗平县,九龙街道,罗平九龙山风电场（罗平西一期）,https://www.sohu.com/a/720535908_121124362,165MW,https://www.sohu.com/a/720535908_121124362,高,地理编码成功,云南省曲靖市罗平县九龙街道,104.293386,24.960327,success: province_city_district_detail
117,板桥（含清水海/海洋哨）,寻甸板桥风电场,99,云南省,昆明市,寻甸县,六哨/先锋/金所乡,板桥风电场（清水海+海洋哨）,https://so.html5.qq.com/page/real/search_news?docid=70000021_944610255c849052,99MW,https://so.html5.qq.com/page/real/search_news?docid=70000021_944610255c849052,高,地理编码成功,六哨/先锋/金所乡,103.1963,25.55288,success: detail_address
118,白鹤厂（含扩建）,祥云白鹤厂风电场,49.5,云南省,大理州,祥云县,沙龙镇,白鹤厂风电场,https://news.bjx.com.cn/html/20151029/676254.shtml,49.5MW,https://news.bjx.com.cn/html/20151029/676254.shtml,高,地理编码成功,沙龙镇,100.60707,25.46226,success: detail_address
119,东华（含扩建）,泸西东华风电场,31.5,云南省,红河州,泸西县,中枢镇/旧城镇,东华风电场,https://news.bjx.com.cn/html/20120320/349004.shtml,31.5MW,https://news.bjx.com.cn/html/20120320/349004.shtml,高,地理编码成功,云南省红河州泸西县中枢镇/旧城镇,103.75154,24.55137,success: province_city_district_detail
120,东山,泸西东山风电场,40.5,云南省,红河州,泸西县,云南省红河州泸西县城东面东山上,东山风电场,https://www.bidcenter.com.cn/newscontent-7426778-1.html,40.5MW,https://www.bidcenter.com.cn/newscontent-7426778-1.html,高,地理编码成功,云南省红河州泸西县城东面东山上,103.66778,24.63023,success: detail_address
121,大坡顶,泸西大坡顶风电场,49.5,云南省,红河州,泸西县,云南省红河州泸西县东山（大坡顶）,大坡顶风电场（李子箐四期）,https://m.bjx.com.cn/mnews/20150122/584065.shtml,49.5MW,https://m.bjx.com.cn/mnews/20150122/584065.shtml,高,地理编码成功,云南省红河州泸西县东山（大坡顶）,103.810358,24.441752,success: detail_address
122,丰乐,洱源丰乐风电场,49.5,云南省,大理州,洱源县,云南省大理州洱源县（洱源县右所镇/邓川镇一带山脊，与骑龙山风电场相邻）,丰乐风电场（罗平山改造升级项目）,https://news.bjx.com.cn/html/20210331/1145011.shtml,49.5MW,https://news.bjx.com.cn/html/20210331/1145011.shtml,高,地理编码成功,云南省大理州洱源县（洱源县右所镇/邓川镇一带山脊，与骑龙山风电场相邻）,100.058306,25.992312,success: detail_address
123,石洞山（含五期）,弥勒石洞山风电场,240,云南省,红河州,弥勒市,巡检司镇/五山乡,石洞山风电场（含吉丹山/茨柯山/对门山/苗峨山）,http://news.bjx.com.cn/html/20140701/523239.shtml,240MW（含五期）,http://news.bjx.com.cn/html/20140701/523239.shtml,高,地理编码成功,巡检司镇/五山乡,103.1836,23.96252,success: detail_address
124,吉丹山,弥勒吉丹山风电场,48,云南省,红河州,弥勒市,五山乡,吉丹山风电场（石洞山二期）,https://www.bidcenter.com.cn/newscontent-20576276-1.html,48MW,https://www.bidcenter.com.cn/newscontent-20576276-1.html,高,地理编码成功,云南省红河州弥勒市五山乡,103.20948,24.17353,success: province_city_district_detail
125,对门山,弥勒对门山风电场,48,云南省,红河州,弥勒市,五山乡,对门山风电场（石洞山三期）,http://news.bjx.com.cn/html/20140701/523239.shtml,48MW,http://news.bjx.com.cn/html/20140701/523239.shtml,高,地理编码成功,云南省红河州弥勒市五山乡,103.20948,24.17353,success: province_city_district_detail
126,漕涧梁子,云龙漕涧梁子风电场,99,云南省,大理州,云龙县,漕涧镇,漕涧梁子风电场,https://news.bjx.com.cn/html/20140606/516498.shtml,99MW,https://news.bjx.com.cn/html/20140606/516498.shtml,高,地理编码成功,漕涧镇,99.12848,25.6613,success: detail_address
127,支锅山,石林支锅山风电场,49.5,云南省,昆明市,石林县,西街口镇,支锅山风电场,https://news.bjx.com.cn/html/20120627/369318.shtml,49.5MW,https://news.bjx.com.cn/html/20120627/369318.shtml,高,地理编码成功,西街口镇,103.51188,24.82483,success: detail_address
128,茨柯山,弥勒茨柯山风电场,48,云南省,红河州,弥勒市,五山乡,茨柯山风电场（石洞山二期）,https://m.bjx.com.cn/mnews/20160122/703728.shtml,48MW,https://m.bjx.com.cn/mnews/20160122/703728.shtml,高,地理编码成功,云南省红河州弥勒市五山乡,103.20948,24.17353,success: province_city_district_detail
129,苗峨山,弥勒苗峨山风电场,,云南省,红河州,弥勒市,"云南省红河州弥勒市,总装机容量550兆瓦,布置88台风机｡其中6.7兆瓦风机66台,是我国山地风电单机容量之最,轮毂高度110-120米,相当于40层楼",苗峨山风电场（石洞山五期）,,,中,待核实,跳过,,,,skipped: 确信度为空或待核实
130,丹凤,师宗丹凤风电场,300,云南省,曲靖市,师宗县,"云南省曲靖市师宗县雄壁镇､竹基镇､漾月街道､葵山镇､彩云镇等五个乡镇境内,北纬24°40′~25°02′,东经103°42′~1",丹凤风电场,http://www.yn.gov.cn/ztgg/zxylcyfzqy/zdxmjsp/sgybxmpf/202203/t20220308_238103.html,300MW,http://www.yn.gov.cn/ztgg/zxylcyfzqy/zdxmjsp/sgybxmpf/202203/t20220308_238103.html,高,地理编码成功,云南省曲靖市师宗县师宗丹凤风电场,103.98747,24.8252,success: province_city_district_name
131,长岭坡,待核实-疑似数据错误,,云南省,,,"未找到（""长岭坡""搜索结果均为吉林长岭县项目，无云南相关风电场）",未找到云南相关风电场，搜索结果为吉林长岭县项目,未找到明确信息,中,待核实,,多次搜索未找到,长岭坡风电场 云南 建设地点;长岭坡 云南 曲靖 风电,,,skipped: 确信度为空或待核实
132,糯扎渡,待核实,,云南省,,,糯扎渡是水电站项目，非风电场,糯扎渡为水电站（585万千瓦），非风电场，位于普洱市思茅区和澜沧县交界处,未找到明确信息,中,待核实,高,确认非风电场,糯扎渡风电场 云南普洱 建设地点,,,skipped: 确信度为空或待核实
133,天峰山,祥云天峰山风电场,199.25,云南省,大理州,祥云县,东山乡/下庄镇/普淜镇,天峰山风电场,https://news.bjx.com.cn/topics/tianfengshanfengdianchang/,199.25MW,https://news.bjx.com.cn/topics/tianfengshanfengdianchang/,高,地理编码成功,云南省大理州祥云县东山乡/下庄镇/普淜镇,100.78685,25.4318,success: province_city_district_detail
134,太平,大理太平风电场,31.5,云南省,大理州,漾濞县,云南省大理州大理市凤仪镇太平村附近,太平风电场,https://news.bjx.com.cn/topics/taipingfengdianchang/,31.5MW,https://news.bjx.com.cn/topics/taipingfengdianchang/,高,地理编码成功,云南省大理州漾濞县云南省大理州大理市凤仪镇太平村附近,99.855021,25.608739,success: province_city_district_detail
135,富源北光梁子,富源光梁子风电场,166.4,云南省,曲靖市,富源县,后所镇,富源光梁子风电场,http://newenergy.in-en.com/html/newenergy-2286867.shtml,48MW+118.4MW,http://newenergy.in-en.com/html/newenergy-2286867.shtml,高,地理编码成功,后所镇,104.29482,25.80299,success: detail_address
136,对门梁子,马龙对门梁子风电场,90,云南省,曲靖市,马龙区,旧县镇/通泉镇,马龙对门梁子风电场,https://m.bjx.com.cn/mnews/20150421/610472.shtml,90MW,https://m.bjx.com.cn/mnews/20150421/610472.shtml,高,地理编码成功,云南省曲靖市马龙区旧县镇/通泉镇,103.409628,25.383253,success: province_city_district_detail
137,将军山（含大丫口）,华宁大丫口-将军山风电场,88,云南省,玉溪市,华宁县,"玉溪市峨山县,是一座保存完好的古代水上城镇,拥有古老的街巷、建筑和文化遗址,具有浓郁的历史和人文氛围",华宁大丫口将军山风电场,http://sdgw.powerchina.cn/col13033/art/2022/art_13033_1486598.html,88MW,http://sdgw.powerchina.cn/col13033/art/2022/art_13033_1486598.html,高,地理编码成功,云南省玉溪市华宁县华宁大丫口-将军山风电场,102.93953,24.19394,success: province_city_district_name
138,小白岩,寻甸小白岩风电场,75,云南省,昆明市,寻甸县,昆明市倘甸产业园区和昆明轿子山旅游开发区 验收调查单位: 云南省环境工程评估中心 建设内容: 昆明市倘甸小白龙风电场项目,寻甸小白岩风电场,http://www.qianlima.com/gjxx/69418/index_29_0.html,75MW,http://www.qianlima.com/gjxx/69418/index_29_0.html,中,地理编码成功,云南省昆明市寻甸县寻甸小白岩风电场,103.46664,25.71536,success: province_city_district_name
139,巨龙梁,寻甸巨龙梁风电场,100,云南省,昆明市,寻甸县,金源乡/倘甸镇,寻甸巨龙梁风电场,https://zhuanlan.zhihu.com/p/599762000,100MW,https://zhuanlan.zhihu.com/p/599762000,高,地理编码成功,金源乡/倘甸镇,102.92251,25.77179,success: detail_address
140,巨龙山,宾川巨龙山风电场,49.5,云南省,大理州,宾川县,宾居镇/大营镇,宾川巨龙山风电场,https://news.bjx.com.cn/html/20141016/554969.shtml,49.5MW,https://news.bjx.com.cn/html/20141016/554969.shtml,高,地理编码成功,宾居镇/大营镇,100.461714,25.787727,success: detail_address
141,通泉（含扩建）,马龙通泉风电场,350,云南省,曲靖市,马龙区,云南省曲靖市马龙区月望乡/纳章镇与麒麟区、陆良县交界山脊,通泉风电场,https://so.html5.qq.com/page/real/search_news?docid=70000021_05260d6a68948152,350MW,https://so.html5.qq.com/page/real/search_news?docid=70000021_05260d6a68948152,高,地理编码成功,云南省曲靖市马龙区云南省曲靖市马龙区月望乡/纳章镇与麒麟区、陆良县交界山脊,103.647077,25.369555,success: province_city_district_detail
142,马鞍山（含五期）,洱源马鞍山风电场,228,云南省,大理州,洱源县,"云南省大理州洱源县马鞍山风电场,是国内海拔最高的风电场之一,风场规划了马鞍山､黄草坡和观音山､干海子､大龙潭五个风电场,高程在2600m~3300m之间",马鞍山风电场（含马鞍山+黄草坡+观音山+大龙潭+干海子五期）,http://archiverm.yingjiesheng.com/job-000-989-496.html,228MW,http://archiverm.yingjiesheng.com/job-000-989-496.html,高,地理编码失败,"云南省大理州洱源县马鞍山风电场,是国内海拔最高的风电场之一,风场规划了马鞍山､黄草坡和观音山､干海子､大龙潭五个风电场,高程在2600m~3300m之间",,,failed: name_only: 行政区不匹配
143,朵古,蒙自朵古风电场,49.5,云南省,红河州,蒙自市,西北勒乡,蒙自朵古风电场,http://yn.people.com.cn/n2/2021/0827/c372456-34887424.html,49.5MW,http://yn.people.com.cn/n2/2021/0827/c372456-34887424.html,高,地理编码成功,西北勒乡,103.4693,23.4837,success: detail_address
144,会泽金钟（一期）,会泽金钟风电场,300,云南省,曲靖市,会泽县,金钟镇/五星乡/大海乡,会泽金钟风电场一期,https://news.bjx.com.cn/html/20220210/1203410.shtml,300MW,https://news.bjx.com.cn/html/20220210/1203410.shtml,高,地理编码成功,云南省曲靖市会泽县金钟镇/五星乡/大海乡,103.260145,26.55154,success: province_city_district_detail
145,会泽金钟（二期）,会泽金钟风电场二期,50.4,云南省,曲靖市,会泽县,"云南省东北部东经103°03′~103°55′,北纬25°48′~27°04′之间的乌蒙山主峰地段,距昆明市区190公里,曲靖市区180公里｡地处会泽县城",金钟风电场二期,https://wind.imarine.cn/news/100727.html,50.4MW,https://wind.imarine.cn/news/100727.html,高,地理编码成功,云南省曲靖市会泽县会泽金钟风电场二期,103.31031,26.41785,success: province_city_district_name
146,弥勒东风电场,永宁风电项目南片区,（永宁750MW项目一部分）,云南省,红河州,弥勒市,云南省红河州泸西县南部、弥勒市交界山脊,弥勒东风电场（永宁项目南片区）,https://m.bjx.com.cn/mnews/20230915/1332127.shtml,（永宁项目南片区）,https://m.bjx.com.cn/mnews/20230915/1332127.shtml,高,地理编码成功,云南省红河州泸西县南部、弥勒市交界山脊,103.39882,24.30962,success: detail_address
147,舍得,丘北羊雄山风电场,99,云南省,文山州,丘北县,舍得乡,丘北羊雄山风电场（舍得片区）,https://news.bjx.com.cn/html/20130917/460323.shtml,99MW,https://news.bjx.com.cn/html/20130917/460323.shtml,高,地理编码成功,舍得乡,103.86636,24.23799,success: detail_address
148,文兴,宣威文兴风电场,377.25,云南省,曲靖市,宣威市,文兴乡/双河乡/乐丰乡,宣威文兴风电场,https://m.bjx.com.cn/mnews/20210508/1151462.shtml,377.25MW,https://m.bjx.com.cn/mnews/20210508/1151462.shtml,高,地理编码成功,文兴乡/双河乡/乐丰乡,104.38794,26.49365,success: detail_address
149,西泽,宣威西泽风电场,210,云南省,曲靖市,宣威市,务德镇/西泽乡/热水镇,宣威西泽风电场,https://www.sohu.com/a/749738719_121613636,210MW,https://www.sohu.com/a/749738719_121613636,高,地理编码成功,云南省曲靖市宣威市务德镇/西泽乡/热水镇,103.72044,26.26758,success: province_city_district_detail
150,马塘,陆良马塘风电场,49.5,云南省,曲靖市,陆良县,龙海乡,陆良马塘风电场,https://news.bjx.com.cn/html/20120629/369881.shtml,49.5MW,https://news.bjx.com.cn/html/20120629/369881.shtml,高,地理编码成功,龙海乡,103.83386,24.950567,success: detail_address
151,龙潭（洱源大龙潭）,洱源大龙潭风电场,49.5,云南省,大理州,洱源县,右所镇/邓川镇,洱源大龙潭风电场（马鞍山南片区）,https://sthjt.yn.gov.cn/xxywzsdt/201111/t20111101_32648.html,49.5MW,https://sthjt.yn.gov.cn/xxywzsdt/201111/t20111101_32648.html,高,地理编码成功,右所镇/邓川镇,100.08723,26.00209,success: detail_address
152,龙潭（陆良龙潭）,陆良龙潭风电场,49.5,云南省,曲靖市,陆良县,云南省曲靖市陆良县境内,陆良龙潭风电场,https://news.zcwz.com/56044.html,49.5MW,https://news.zcwz.com/56044.html,高,地理编码成功,云南省曲靖市陆良县境内,103.719704,24.903682,success: detail_address
153,黄草坡,洱源黄草坡风电场,49.5,云南省,大理州,洱源县,"云南省大理州洱源县,属马鞍山山脉南缘｡地理坐标介于北纬26°04′~N26°10′,东经100°05′~100°08′之间,高程在2",洱源黄草坡风电场（马鞍山二期）,http://www.qinghuan.com/buy/show.php?itemid=21504,49.5MW,http://www.qinghuan.com/buy/show.php?itemid=21504,高,地理编码成功,云南省大理州洱源县洱源黄草坡风电场,100.086115,26.208683,success: province_city_district_name
154,德宏芒市平河风电场,芒市平河风电场,200,云南省,德宏州,芒市,平河乡,芒市平河风电场,https://new.qq.com/rain/a/20251201A05VGH00,200MW,https://new.qq.com/rain/a/20251201A05VGH00,高,地理编码成功,云南省德宏州芒市平河乡,98.58222,24.45293,success: province_city_district_detail
155,昌宁长田风电场,昌宁长田风电场,43.75,云南省,保山市,昌宁县,"保山市昌宁县更戛乡大沙坝村,场址海拔在734米至1452米之间,属于云南省光伏较佳开发区｡规划容量15万千瓦,工程总投资",昌宁长田风电场,https://finance.sina.com.cn/roll/2026-04-09/doc-inhtwxnu1978214.shtml,43.75MW,https://finance.sina.com.cn/roll/2026-04-09/doc-inhtwxnu1978214.shtml,高,地理编码成功,云南省保山市昌宁县昌宁长田风电场,99.61237,24.82805,success: province_city_district_name
156,华宁大龙山风电场,华宁大龙山风电场,56.25,云南省,玉溪市,华宁县,"云南省玉溪市华宁县青龙镇,建造商是云南华宁新九龙投资有限公司基本内容位于南盘江干流中段河流,地处云南省玉溪市华宁县青龙镇",华宁大龙山风电场,https://finance.sina.com.cn/roll/2026-04-09/doc-inhtwxnu1978214.shtml,56.25MW,https://finance.sina.com.cn/roll/2026-04-09/doc-inhtwxnu1978214.shtml,高,地理编码成功,云南省玉溪市华宁县华宁大龙山风电场,102.93953,24.19394,success: province_city_district_name
157,昌宁中寨风电场,昌宁中寨风电场,37.5,云南省,保山市,昌宁县,云南省保山市海口市海南师范大学龙昆南校区 3、建设内容:1.原地清表及部分树木移植;2.基础土石方机械开挖及外运;3.钢筋混凝土基础,昌宁中寨风电场,https://finance.sina.com.cn/roll/2026-04-09/doc-inhtwxnu1978214.shtml,37.5MW,https://finance.sina.com.cn/roll/2026-04-09/doc-inhtwxnu1978214.shtml,高,地理编码成功,云南省保山市昌宁县昌宁中寨风电场,99.60917,24.82425,success: province_city_district_name
158,弥勒西风电场扩建,弥勒西风电场扩建项目,300,云南省,红河州,弥勒市,"云南省红河州弥勒市,总装机容量550兆瓦,布置88台风机｡其中6.7兆瓦风机66台,是我国山地风电单机容量之最,轮毂高度110-120米,相当于40层楼",弥勒西风电场扩建,https://m.bjx.com.cn/mnews/20250307/1430832.shtml,300MW,https://m.bjx.com.cn/mnews/20250307/1430832.shtml,高,地理编码成功,云南省红河州弥勒市弥勒西风电场扩建项目,103.26654,24.46412,success: province_city_district_name
159,开远大黑山风电场扩建,开远大黑山风电场扩建项目,300,云南省,红河州,开远市,"红河州开远市,总装机容量19.5万千瓦,主要建设32台风电机组｡项目总投资104218.77万元,项目单位为云南华电大黑山风力发电有限公司｡",开远大黑山风电场扩建,https://m.bjx.com.cn/mnews/20250307/1430832.shtml,300MW,https://m.bjx.com.cn/mnews/20250307/1430832.shtml,高,地理编码成功,云南省红河州开远市开远大黑山风电场扩建项目,103.255584,23.716465,success: province_city_district_name
160,开远仙人洞坡风电场扩建,开远仙人洞坡风电场扩建项目,335,云南省,红河州,开远市,"位于红河哈尼族彝族自治州开远市｡ 项目总装机容量19.5万千瓦,主要建设36台风电机组｡ 项目总投资87414.4万元｡",开远仙人洞坡风电场扩建,https://m.bjx.com.cn/mnews/20250307/1430832.shtml,335MW,https://m.bjx.com.cn/mnews/20250307/1430832.shtml,高,地理编码成功,云南省红河州开远市开远仙人洞坡风电场扩建项目,103.2725,23.71539,success: province_city_district_name
161,元江羊岔街风电场二期,元江羊岔街风电场扩建项目,50,云南省,玉溪市,元江县,"云南省玉溪市通海县杨广镇; (3)建设性质:新建; (4)建设内容及规模:占地面积39.99hm2,规划容量为62.5MW,工程推荐",元江羊岔街风电场扩建二期,https://new.qq.com/rain/a/20260210A0779Q00,50MW,https://new.qq.com/rain/a/20260210A0779Q00,高,地理编码成功,云南省玉溪市元江县元江羊岔街风电场扩建项目,101.7674,23.66741,success: province_city_district_name
162,宣威西泽风电场二期,宣威西泽风电场扩建项目,50,云南省,曲靖市,宣威市,"曲靖市宣威市务德镇和热水镇附近高山山脊上,受生态红线､国家公益林等限制性开放因素影响,西泽风电场主要开放利用区域分为A､",宣威西泽风电场扩建二期,https://new.qq.com/rain/a/20260210A0779Q00,50MW,https://new.qq.com/rain/a/20260210A0779Q00,高,地理编码成功,云南省曲靖市宣威市宣威西泽风电场扩建项目,103.804369,26.220406,success: province_city_district_name
163,大姚老尖山风电场扩建,大姚老尖山风电场扩建项目,75,云南省,楚雄州,大姚县,"云南省楚雄彝族自治州大姚县,场址位于老尖山风电场东侧,总工期为 12个月｡在建设项目装机的同时,将新建一条110千伏送出",大姚老尖山风电场扩建,https://news.bjx.com.cn/html/20241127/1413239.shtml,75MW,https://news.bjx.com.cn/html/20241127/1413239.shtml,高,地理编码成功,云南省楚雄州大姚县大姚老尖山风电场扩建项目,101.32137,25.7418,success: province_city_district_name
164,个旧猴子山风电场扩建,个旧猴子山风电场扩建项目,50,云南省,红河州,个旧市,云南省红河州个旧市老厂镇北部高山坡地上（一期：老厂镇和卡房镇之间山脊）,个旧猴子山风电场扩建,https://news.bjx.com.cn/html/20250106/1421073.shtml,50MW,https://news.bjx.com.cn/html/20250106/1421073.shtml,高,地理编码成功,云南省红河州个旧市老厂镇北部高山坡地上（一期：老厂镇和卡房镇之间山脊）,103.240138,23.285438,success: detail_address
165,富源南冲风电场,富源南冲风电场项目,62.5,云南省,曲靖市,富源县,云南省曲靖市富源县东部与贵州交界附近山脊,富源南冲风电场,https://www.cpnn.com.cn/news/dfny/202602/t20260211_1866813.html,62.5MW,https://www.cpnn.com.cn/news/dfny/202602/t20260211_1866813.html,高,地理编码成功,云南省曲靖市富源县东部与贵州交界附近山脊,104.24993,25.67419,success: detail_address
166,洱源罗平山风电场改造升级,洱源罗平山风电场改造升级项目,144,云南省,大理州,洱源县,云南省大理州洱源县右所镇罗坪山,洱源罗平山风电场改造升级,https://new.qq.com/rain/a/20260108A01FGW00,144MW,https://new.qq.com/rain/a/20260108A01FGW00,高,地理编码成功,云南省大理州洱源县右所镇罗坪山,100.06,26.02635,success: detail_address
167,洱源骑龙山风电场改造升级,洱源骑龙山风电场改造升级项目,144.75,云南省,大理州,洱源县,云南省大理州洱源县凤羽镇/乔后镇骑龙山,洱源骑龙山风电场改造升级,https://new.qq.com/rain/a/20260108A01FGW00,144.75MW,https://new.qq.com/rain/a/20260108A01FGW00,高,地理编码成功,云南省大理州洱源县凤羽镇/乔后镇骑龙山,99.811353,26.078679,success: detail_address
168,洱源丰乐风电场改造升级,洱源丰乐风电场改造升级项目,100,云南省,大理州,洱源县,云南省大理州洱源县（罗坪山区域）,洱源丰乐风电场改造升级,https://new.qq.com/rain/a/20260108A01FGW00,100MW,https://new.qq.com/rain/a/20260108A01FGW00,高,地理编码成功,云南省大理州洱源县（罗坪山区域）,99.839409,26.070877,success: detail_address
169,永胜阿谷子风电场改造升级,永胜阿谷子风电场改造升级项目,100,云南省,丽江市,永胜县,云南省丽江市永胜县东南部阿谷子,永胜阿谷子风电场改造升级,https://new.qq.com/rain/a/20260108A01FGW00,100MW,https://new.qq.com/rain/a/20260108A01FGW00,高,地理编码成功,云南省丽江市永胜县东南部阿谷子,100.451397,27.013837,success: detail_address
170,华坪西风电场改造升级,华坪西风电场改造升级项目,100,云南省,丽江市,华坪县,云南省丽江市华坪县,华坪西风电场改造升级,https://new.qq.com/rain/a/20260108A01FGW00,100MW,https://new.qq.com/rain/a/20260108A01FGW00,高,地理编码成功,云南省丽江市华坪县,101.26447,26.63264,success: detail_address
171,富源北风电场三期,富源北风电场三期项目,100,云南省,曲靖市,富源县,云南省曲靖市富源县,富源北风电场三期,https://new.qq.com/rain/a/20260108A01FGW00,100MW,https://new.qq.com/rain/a/20260108A01FGW00,高,地理编码成功,云南省曲靖市富源县,104.25253,25.67787,success: detail_address
172,昆明西山区孝母山风电场改造,昆明孝母山风电场改造升级项目,100,云南省,昆明市,西山区,云南省昆明市西山区团结街道孝母山,昆明孝母山风电场改造升级,https://new.qq.com/rain/a/20260108A01FGW00,100MW,https://new.qq.com/rain/a/20260108A01FGW00,高,地理编码成功,云南省昆明市西山区团结街道孝母山,102.457069,25.113111,success: detail_address
173,南华官庄风电场,南华官庄风电场项目,50,云南省,楚雄州,南华县,云南省楚雄州南华县,南华官庄风电场,https://www.toutiao.com/article/7615459564569297460/,50MW,https://www.toutiao.com/article/7615459564569297460/,高,地理编码成功,云南省楚雄州南华县,101.286123,25.20878,success: detail_address
174,大姚叭腊么风电场,大姚叭腊么风电场项目,50,云南省,楚雄州,大姚县,云南省楚雄州大姚县,大姚叭腊么风电场,https://www.toutiao.com/article/7615459564569297460/,50MW,https://www.toutiao.com/article/7615459564569297460/,高,地理编码成功,云南省楚雄州大姚县,101.322344,25.716597,success: detail_address
175,宁蒗湾钩梁子风电场,宁蒗湾钩梁子风电场项目,50,云南省,丽江市,宁蒗县,云南省丽江市宁蒗县,宁蒗湾钩梁子风电场,https://www.toutiao.com/article/7615459564569297460/,50MW,https://www.toutiao.com/article/7615459564569297460/,高,地理编码成功,云南省丽江市宁蒗县,100.85077,27.28551,success: detail_address
176,红河白石岩风电场一期,红河白石岩风电场一期,70,云南省,红河州,,云南省红河州,红河白石岩风电场一期,https://www.sohu.com/a/1009604074_121956424,70MW,https://www.sohu.com/a/1009604074_121956424,高,地理编码成功,云南省红河州,102.8278,23.63752,success: detail_address
177,红河白石岩风电场二区,红河白石岩风电场二区,55,云南省,红河州,,云南省红河州,红河白石岩风电场二区,https://www.sohu.com/a/1009604074_121956424,55MW,https://www.sohu.com/a/1009604074_121956424,高,地理编码成功,云南省红河州,102.8278,23.63752,success: detail_address
178,富源西四期风电场,富源西四期风电场项目,140.7,云南省,曲靖市,富源县,云南省曲靖市富源县,富源西四期风电场,https://news.bjx.com.cn/topics/yunnan/,140.7MW,https://news.bjx.com.cn/topics/yunnan/,高,地理编码成功,云南省曲靖市富源县,104.25253,25.67787,success: detail_address
179,永宁风电场四期,永宁风电场四期项目,50,云南省,红河州,弥勒市,云南省红河州泸西县中部及南部区域山脊,永宁风电场四期,https://www.163.com/dy/article/JK6JIBA30552R0Y2.html,50MW,https://www.163.com/dy/article/JK6JIBA30552R0Y2.html,高,地理编码成功,云南省红河州弥勒市永宁风电场四期项目,103.42231,24.413,success: province_city_district_name
180,文笔山风电场二期,文笔山风电场扩建二期项目,50,云南省,红河州,,云南省红河州,文笔山风电场二期,https://www.163.com/dy/article/JK6JIBA30552R0Y2.html,50MW,https://www.163.com/dy/article/JK6JIBA30552R0Y2.html,高,地理编码成功,云南省红河州,102.8278,23.63752,success: detail_address
181,三棵山风电场,三棵山风电场项目,50,云南省,,,三棵山风电场,https://www.163.com/dy/article/JK6JIBA30552R0Y2.html,50MW,https://www.163.com/dy/article/JK6JIBA30552R0Y2.html,中,待核实,跳过,,,,skipped: 确信度为空或待核实
182,山冲风电场,山冲风电场项目,50,云南省,,,山冲风电场,https://www.163.com/dy/article/JK6JIBA30552R0Y2.html,50MW,https://www.163.com/dy/article/JK6JIBA30552R0Y2.html,中,待核实,跳过,,,,skipped: 确信度为空或待核实
183,永宁风电场,永宁风电场项目,750,云南省,红河州,泸西县/弥勒市,云南省红河州泸西县中部及南部、弥勒市东部（8个乡镇山脊）,永宁风电场,https://so.html5.qq.com/page/real/search_news?docid=70000021_00761fb59bc35952,750MW,https://so.html5.qq.com/page/real/search_news?docid=70000021_00761fb59bc35952,高,地理编码成功,云南省红河州泸西县中部及南部、弥勒市东部（8个乡镇山脊）,103.769438,24.482629,success: detail_address
184,砚山天马山风电场二期,砚山天马山风电场二期,50,云南省,文山州,砚山县,云南省文山州砚山县,砚山天马山风电场二期,https://so.html5.qq.com/page/real/search_news?docid=70000021_00761fb59bc35952,50MW,https://so.html5.qq.com/page/real/search_news?docid=70000021_00761fb59bc35952,高,地理编码成功,云南省文山州砚山县,104.334632,23.621525,success: detail_address
185,开远剑角峰风电场扩建,开远剑角峰风电场扩建项目,50,云南省,红河州,开远市,云南省红河州开远市东部中和营镇、乐白道街道一带山脊,开远剑角峰风电场扩建,https://www.sohu.com/a/846264514_122135425,50MW,https://www.sohu.com/a/846264514_122135425,高,地理编码成功,云南省红河州开远市东部中和营镇、乐白道街道一带山脊,103.2725,23.71539,success: detail_address
186,宁蒗火木梁风电场扩建,宁蒗火木梁风电场扩建项目,50,云南省,丽江市,宁蒗县,云南省丽江市宁蒗县,宁蒗火木梁风电场扩建,https://www.sohu.com/a/846264514_122135425,50MW,https://www.sohu.com/a/846264514_122135425,高,地理编码成功,云南省丽江市宁蒗县,100.85077,27.28551,success: detail_address
187,寻甸马桑井风电场扩建,寻甸马桑井风电场扩建项目,50,云南省,曲靖市,寻甸县,云南省昆明市寻甸县甸沙乡苏撒坡村,寻甸马桑井风电场扩建,https://www.sohu.com/a/846264514_122135425,50MW,https://www.sohu.com/a/846264514_122135425,高,地理编码失败,云南省昆明市寻甸县甸沙乡苏撒坡村,,,failed: name_only: 行政区不匹配
188,新平联兴风电场三期,新平联兴风电场三期项目,50,云南省,玉溪市,新平县,云南省玉溪市新平县,新平联兴风电场三期,https://www.sohu.com/a/846264514_122135425,50MW,https://www.sohu.com/a/846264514_122135425,高,地理编码成功,云南省玉溪市新平县,101.989473,24.073361,success: detail_address
189,果东风电场,果东风电场项目,50,云南省,楚雄州,,云南省楚雄州,果东风电场,https://new.qq.com/rain/a/20251226A02VGR00,50MW,https://new.qq.com/rain/a/20251226A02VGR00,高,地理编码成功,云南省楚雄州,101.55041,25.30894,success: detail_address
190,万溪冲风电场,万溪冲风电场项目,50,云南省,昆明市,,云南省昆明市呈贡区万溪冲,万溪冲风电场,https://new.qq.com/rain/a/20251226A02VGR00,50MW,https://new.qq.com/rain/a/20251226A02VGR00,高,地理编码成功,云南省昆明市呈贡区万溪冲,102.874884,24.824902,success: detail_address
191,云甸零碳园区风电场一期,云甸零碳园区风电场一期项目,50,云南省,楚雄州,楚雄市,云南省楚雄州,云甸零碳园区风电场一期,https://new.qq.com/rain/a/20251226A02VGR00,50MW,https://new.qq.com/rain/a/20251226A02VGR00,高,地理编码成功,云南省楚雄州楚雄市云南省楚雄州,101.57717,24.9882,success: province_city_district_detail
192,富源西五期风电场,富源西风电场五期项目,160.8,云南省,曲靖市,富源县,云南省曲靖市富源县,富源西风电场五期,https://www.sohu.com/a/817496015_121106902,160.8MW,https://www.sohu.com/a/817496015_121106902,高,地理编码成功,云南省曲靖市富源县,104.25253,25.67787,success: detail_address
193,永宁风电场泸西片区,永宁风电场泸西片区扩建项目,50,云南省,红河州,泸西县,云南省红河州泸西县（午街铺镇/中枢镇/永宁乡/向阳乡/白水镇）,永宁风电场泸西片区,https://so.html5.qq.com/page/real/search_news?docid=70000021_88365802efa30452,50MW,https://so.html5.qq.com/page/real/search_news?docid=70000021_88365802efa30452,高,地理编码成功,云南省红河州泸西县（午街铺镇/中枢镇/永宁乡/向阳乡/白水镇）,103.75154,24.55137,success: detail_address
194,通泉北风电场,通泉北风电场项目,50,云南省,曲靖市,马龙区,云南省曲靖市马龙区,通泉北风电场,https://so.html5.qq.com/page/real/search_news?docid=70000021_418659e776391552,50MW,https://so.html5.qq.com/page/real/search_news?docid=70000021_418659e776391552,中,地理编码成功,云南省曲靖市马龙区,103.57665,25.43113,success: detail_address
195,广南新华风电场,广南新华风电场项目,50,云南省,文山州,广南县,云南省文山州广南县,广南新华风电场,https://so.html5.qq.com/page/real/search_news?docid=70000021_096699f976873152,50MW,https://so.html5.qq.com/page/real/search_news?docid=70000021_096699f976873152,高,地理编码成功,云南省文山州广南县,105.051026,24.052788,success: detail_address
196,富宁那来风电场扩建,富宁那来风电场扩建项目,50,云南省,文山州,富宁县,云南省文山州富宁县,富宁那来风电场扩建,https://so.html5.qq.com/page/real/search_news?docid=70000021_096699f976873152,50MW,https://so.html5.qq.com/page/real/search_news?docid=70000021_096699f976873152,高,地理编码成功,云南省文山州富宁县,105.62069,23.6287,success: detail_address
197,祥云西山风电场,祥云西山风电场项目,50,云南省,大理州,祥云县,云南省大理州祥云县,祥云西山风电场,https://so.html5.qq.com/page/real/search_news?docid=70000021_067694fb90782252,50MW,https://so.html5.qq.com/page/real/search_news?docid=70000021_067694fb90782252,高,地理编码成功,云南省大理州祥云县,100.55264,25.47692,success: detail_address
198,新桥风电场,新桥风电场项目,50,云南省,,,新桥风电场,https://www.163.com/dy/article/JK6JIBA30552R0Y2.html,50MW,https://www.163.com/dy/article/JK6JIBA30552R0Y2.html,中,待核实,跳过,,,,skipped: 确信度为空或待核实
199,会泽金钟风电场二期,会泽金钟风电场二期项目,50.4,云南省,曲靖市,会泽县,云南省曲靖市会泽县金钟镇山脊,会泽金钟风电场二期,https://www.163.com/dy/article/JK6JIBA30552R0Y2.html,50.4MW,https://www.163.com/dy/article/JK6JIBA30552R0Y2.html,高,地理编码成功,云南省曲靖市会泽县金钟镇山脊,103.30545,26.41493,success: detail_address
